[
{
  "model": "locations.location",
  "pk": 5,
  "fields": {
    "name": "Arjun Doel",
    "image1": "",
    "image2": "",
    "image3": "",
    "description": "The cool kids house.",
    "address": "123 Coppermill Road",
    "city": "London",
    "state": "",
    "postal_code": "TW19 5NX",
    "country": "United Kingdom",
    "latitude": "0E-10",
    "longitude": "0E-10",
    "post_at": "2021-07-21T14:09:10.314Z"
  }
},
{
  "model": "locations.location",
  "pk": 6,
  "fields": {
    "name": "test",
    "image1": "",
    "image2": "",
    "image3": "",
    "description": "The cool kids house.",
    "address": "123 Coppermill Road",
    "city": "London",
    "state": "",
    "postal_code": "TW19 5NX",
    "country": "United Kingdom",
    "latitude": "0E-10",
    "longitude": "0E-10",
    "post_at": "2021-07-21T14:09:30.406Z"
  }
},
{
  "model": "locations.location",
  "pk": 7,
  "fields": {
    "name": "asdfasdfasdf",
    "image1": "",
    "image2": "",
    "image3": "",
    "description": "asdfasdfasdfasdf",
    "address": "123 Coppermill Road",
    "city": "London",
    "state": "",
    "postal_code": "TW19 5NX",
    "country": "United Kingdom",
    "latitude": "0E-10",
    "longitude": "0E-10",
    "post_at": "2021-07-21T14:15:40.768Z"
  }
},
{
  "model": "locations.location",
  "pk": 8,
  "fields": {
    "name": "test from insom",
    "image1": "",
    "image2": "",
    "image3": "",
    "description": "The cool kids house.",
    "address": "123 Coppermill Road",
    "city": "London",
    "state": "",
    "postal_code": "TW19 5NX",
    "country": "United Kingdom",
    "latitude": "0E-10",
    "longitude": "0E-10",
    "post_at": "2021-07-21T15:06:48.414Z"
  }
},
{
  "model": "locations.location",
  "pk": 9,
  "fields": {
    "name": "hello hello",
    "image1": "",
    "image2": "",
    "image3": "",
    "description": "The cool kids house.",
    "address": "123 Coppermill Road",
    "city": "London",
    "state": "",
    "postal_code": "TW19 5NX",
    "country": "United Kingdom",
    "latitude": "0E-10",
    "longitude": "0E-10",
    "post_at": "2021-07-21T15:35:03.010Z"
  }
},
{
  "model": "locations.location",
  "pk": 10,
  "fields": {
    "name": "hello hello getatrrr",
    "image1": "",
    "image2": "",
    "image3": "",
    "description": "The cool kids house.",
    "address": "123 Coppermill Road, wraysbury, staines",
    "city": "London",
    "state": "",
    "postal_code": "TW19 5NX",
    "country": "United Kingdom",
    "latitude": "0E-10",
    "longitude": "0E-10",
    "post_at": "2021-07-21T19:40:27.871Z"
  }
},
{
  "model": "locations.location",
  "pk": 11,
  "fields": {
    "name": "hello hello getatrrrasfgasdfgsdfg",
    "image1": "",
    "image2": "",
    "image3": "",
    "description": "The cool kids house.",
    "address": "123 Coppermill Road, wraysbury, staines",
    "city": "London",
    "state": "",
    "postal_code": "TW19 5NX",
    "country": "United Kingdom",
    "latitude": "0E-10",
    "longitude": "0E-10",
    "post_at": "2021-07-21T19:41:39.226Z"
  }
},
{
  "model": "locations.location",
  "pk": 12,
  "fields": {
    "name": "request test",
    "image1": "",
    "image2": "",
    "image3": "",
    "description": "The cool kids house.",
    "address": "123 Coppermill Road, wraysbury, staines",
    "city": "London",
    "state": "",
    "postal_code": "TW19 5NX",
    "country": "United Kingdom",
    "latitude": "0E-10",
    "longitude": "0E-10",
    "post_at": "2021-07-22T08:19:08.859Z"
  }
},
{
  "model": "locations.location",
  "pk": 13,
  "fields": {
    "name": "request testchange lat",
    "image1": "",
    "image2": "",
    "image3": "",
    "description": "The cool kids house.",
    "address": "123 Coppermill Road, wraysbury, staines",
    "city": "London",
    "state": "",
    "postal_code": "TW19 5NX",
    "country": "United Kingdom",
    "latitude": "1.5555500000",
    "longitude": "0E-10",
    "post_at": "2021-07-22T08:19:49.199Z"
  }
},
{
  "model": "locations.location",
  "pk": 14,
  "fields": {
    "name": "request testchange lat test with add",
    "image1": "",
    "image2": "",
    "image3": "",
    "description": "The cool kids house.",
    "address": "123 Coppermill Road, wraysbury, staines",
    "city": "London",
    "state": "",
    "postal_code": "TW19 5NX",
    "country": "United Kingdom",
    "latitude": "1.5555500000",
    "longitude": "0E-10",
    "post_at": "2021-07-22T08:25:12.552Z"
  }
},
{
  "model": "locations.location",
  "pk": 15,
  "fields": {
    "name": "request with replace",
    "image1": "",
    "image2": "",
    "image3": "",
    "description": "The cool kids house.",
    "address": "123 Coppermill Road, wraysbury, staines",
    "city": "London",
    "state": "",
    "postal_code": "TW19 5NX",
    "country": "United Kingdom",
    "latitude": "1.5555500000",
    "longitude": "0E-10",
    "post_at": "2021-07-22T08:54:29.777Z"
  }
},
{
  "model": "locations.location",
  "pk": 16,
  "fields": {
    "name": "request with replace in var",
    "image1": "",
    "image2": "",
    "image3": "",
    "description": "The cool kids house.",
    "address": "123 Coppermill Road, wraysbury, staines",
    "city": "London",
    "state": "",
    "postal_code": "TW19 5NX",
    "country": "United Kingdom",
    "latitude": "1.5555500000",
    "longitude": "0E-10",
    "post_at": "2021-07-22T08:59:06.686Z"
  }
},
{
  "model": "locations.location",
  "pk": 17,
  "fields": {
    "name": "request with replace in var var",
    "image1": "",
    "image2": "",
    "image3": "",
    "description": "The cool kids house.",
    "address": "123 Coppermill Road, wraysbury, staines",
    "city": "London",
    "state": "",
    "postal_code": "TW19 5NX",
    "country": "United Kingdom",
    "latitude": "1.5555500000",
    "longitude": "0E-10",
    "post_at": "2021-07-22T08:59:40.189Z"
  }
},
{
  "model": "locations.location",
  "pk": 18,
  "fields": {
    "name": "with geopy",
    "image1": "",
    "image2": "",
    "image3": "",
    "description": "The cool kids house.",
    "address": "123 Coppermill Road Wraysbury",
    "city": "London",
    "state": "",
    "postal_code": "TW19 5NX",
    "country": "United Kingdom",
    "latitude": "51.4584269000",
    "longitude": "-0.5410941000",
    "post_at": "2021-07-22T09:19:15.296Z"
  }
},
{
  "model": "locations.location",
  "pk": 19,
  "fields": {
    "name": "with geopy",
    "image1": "",
    "image2": "",
    "image3": "",
    "description": "The cool kids house.",
    "address": "123 Coppermill Road, Wraysbury",
    "city": "London",
    "state": "",
    "postal_code": "TW19 5NX",
    "country": "United Kingdom",
    "latitude": "51.4584269000",
    "longitude": "-0.5410941000",
    "post_at": "2021-07-22T09:19:40.213Z"
  }
},
{
  "model": "locations.location",
  "pk": 20,
  "fields": {
    "name": "with geopy meg",
    "image1": "",
    "image2": "",
    "image3": "",
    "description": "The cool kids house.",
    "address": "18 Goodere Drive",
    "city": "Birmingham",
    "state": "",
    "postal_code": "B78 1BZ",
    "country": "United Kingdom",
    "latitude": "52.6230190000",
    "longitude": "-1.6138749000",
    "post_at": "2021-07-22T09:28:02.730Z"
  }
},
{
  "model": "locations.location",
  "pk": 21,
  "fields": {
    "name": "with geopy meg 2",
    "image1": "",
    "image2": "",
    "image3": "",
    "description": "The cool kids house.",
    "address": "18 Goodere Drive",
    "city": "Birmingham",
    "state": "",
    "postal_code": "B78 1BZ",
    "country": "United Kingdom",
    "latitude": "52.6230190000",
    "longitude": "-1.6138749000",
    "post_at": "2021-07-22T09:36:20.399Z"
  }
},
{
  "model": "locations.location",
  "pk": 22,
  "fields": {
    "name": "with geopy meg 2",
    "image1": "",
    "image2": "",
    "image3": "",
    "description": "The cool kids house.",
    "address": "49 Dene Avenue, Hounslow",
    "city": "London",
    "state": "",
    "postal_code": "TW3 3AQ",
    "country": "United Kingdom",
    "latitude": "51.4707594000",
    "longitude": "-0.3756308000",
    "post_at": "2021-07-22T09:37:51.576Z"
  }
}
]
